name,logo,trainer,league,description,players,year,location_lat,location_lng
FC Bayern München,bayern.png,Julian Nagelsmann,Bundesliga,"Deutscher Rekordmeister mit starker Offensive.","Manuel Neuer,Thomas Müller,Joshua Kimmich",1900,48.2188,11.6247
Borussia Dortmund,dortmund.png,Edin Terzić,Bundesliga,"Traditionsverein aus dem Ruhrgebiet mit großer Fanbasis.","Gregor Kobel,Mats Hummels",1909,51.4926,7.4519
RB Leipzig,leipzig.png,Marco Rose,Bundesliga,"Junger Verein mit moderner Spielphilosophie.","Peter Gulácsi,Emil Forsberg,Dani Olmo",2009,51.3355,12.3731
Hamburger SV,hsv.png,Steffen Baumgart,2. Bundesliga,"Ehemaliger Bundesliga-Dino mit langer Geschichte.","Daniel Heuer Fernandes,Ludovit Reis,Robert Glatzel",1887,53.5875,9.9841
1. FC Köln,koeln.png,Timo Schultz,Bundesliga,"Der Traditionsclub aus der Domstadt.","Marvin Schwäbe",1948,50.9333,6.95
Eintracht Frankfurt,frankfurt.png,Dino Toppmöller,Bundesliga,"Erfolgreicher Verein mit starkem internationalen Auftritt.","Kevin Trapp,Mario Götze,Omar Marmoush",1899,50.0688,8.6455
VfB Stuttgart,stuttgart.png,Sebastian Hoeneß,Bundesliga,"Traditionsverein aus Schwaben mit starker Nachwuchsarbeit.","Alexander Nübel,Serhou Guirassy,Chris Führich",1893,48.7923,9.2319